{"type":"FeatureCollection","features":[{"type":"Feature","properties":{"Location":"Quivira National Wildlife Refuge, Kansas, USA","Flyway":"Central Flyway","Pathway":"Start, Stop 1"},"geometry":{"type":"Point","coordinates":[-98.7661,38.1922]}},{"type":"Feature","properties":{"Location":"Cheyenne Bottoms Wildlife Area, Kansas, USA ","Flyway":"Central Flyway","Pathway":"Stop 2"},"geometry":{"type":"Point","coordinates":[-98.7635,38.4684]}},{"type":"Feature","properties":{"Location":"Salt Plains National Wildlife Refuge, Oklahoma, USA","Flyway":"Central Flyway","Pathway":"Stop 3"},"geometry":{"type":"Point","coordinates":[-98.1397,36.7583]}},{"type":"Feature","properties":{"Location":"Caprock Canyons State Park, Texas, USA","Flyway":"Central Flyway","Pathway":"Stop 4"},"geometry":{"type":"Point","coordinates":[-101.0445,34.3702]}},{"type":"Feature","properties":{"Location":"Aransas National Wildlife Refuge, Texas, USA","Flyway":"Central Flyway","Pathway":"End, Stop 5"},"geometry":{"type":"Point","coordinates":[-96.8293,28.2023]}}]}